date,time,lat,lon,alt,x_gyro,y_gyro,z_gyro,x_acc,y_acc,z_acc,north,east,down,pitch,yaw,roll,wind_speed,wind_direction
2020/8/10,13:12:45,22.902803,120.2731058,0.043,0,0,0,55,8,-1000,0.094562531,0.146425247,-0.04391472,0.052814025,-1.630993485,0.003898714,41,170
2020/8/10,13:12:48,22.9028036,120.2731081,0.098,0,2,84,57,2,-997,0.162978649,0.389612198,-0.098082334,0.051628046,-1.631791353,0.002958869,41,170
2020/8/10,13:12:51,22.9028041,120.2731093,3.01,-90,39,114,38,99,-993,0.218760014,0.502664566,-3.010179043,0.001164256,-2.031405449,-0.009742743,41,170
2020/8/10,13:12:54,22.9028037,120.2731095,10.076,-25,-15,75,51,34,-937,0.200547218,0.524311066,-9.454845428,-0.022573825,-1.834964991,-0.023127012,41,170
2020/8/10,13:12:57,22.9028037,120.2731076,14.492,-6,-29,-227,-70,48,-996,0.175457001,0.333784103,-14.49276924,-0.128674671,-1.812220216,-0.037739754,41,170
2020/8/10,13:13:00,22.9027971,120.2730523,15.206,82,-14,37,-81,3,-949,-0.560739517,-5.337863922,-15.20630455,-0.087526999,-1.792894483,-0.048197024,41,170
2020/8/10,13:13:03,22.9027872,120.2729733,15.261,-37,-70,11,-90,115,-968,-1.665822029,-13.44099808,-15.2615633,-0.107823014,-1.749071836,-0.060232908,41,170
2020/8/10,13:13:06,22.9027785,120.2728857,15.141,15,31,-28,-93,127,-970,-2.632581711,-22.41721344,-15.14195824,-0.06870538,-1.726966977,-0.087157503,41,170
2020/8/10,13:13:09,22.9027624,120.272806,15.283,134,104,-182,-73,61,-988,-4.428632736,-30.59847641,-15.28302765,-0.084439404,-2.258675098,-0.113584071,41,170
2020/8/10,13:13:12,22.9027047,120.2727499,15.204,-17,35,-34,-103,39,-983,-10.84927845,-36.34970856,-15.20455456,-0.068960406,-2.451536655,-0.009333873,41,170
2020/8/10,13:13:15,22.902641,120.2726986,15.13,121,-85,70,-72,55,-995,-17.93915558,-41.60228729,-15.13027096,-0.082989432,-2.470194101,0.005849928,41,170
2020/8/10,13:13:18,22.902596,120.2726848,14.815,33,48,-995,30,-4,-1026,-22.94731522,-43.01686859,-14.81513405,-0.080170199,2.037439346,-0.076139443,41,170
2020/8/10,13:13:21,22.902572,120.2727443,14.847,-24,-58,-3,-88,-50,-1048,-25.62482071,-36.92529297,-14.84776783,-0.050750371,2.091542721,0.064977862,41,170
2020/8/10,13:13:24,22.9025385,120.2728129,15.147,134,-21,45,-116,-100,-1002,-29.3470726,-29.88237381,-15.14771557,-0.063115545,2.107168674,0.064691573,41,170
2020/8/10,13:13:27,22.9025051,120.2728521,15.424,-176,159,116,-176,4,-1061,-33.06523132,-25.86624908,-15.42414951,-0.235578299,-2.735629082,0.070655093,41,170
2020/8/10,13:13:30,22.9024479,120.2728165,15.235,43,-93,-4,-105,-6,-1011,-39.42953873,-29.51734543,-15.23509789,-0.128895715,-2.560050726,0.016129918,41,170
2020/8/10,13:13:33,22.902385,120.2727711,14.921,-268,15,-63,-125,123,-1025,-46.43935013,-34.16902542,-14.92147636,-0.102683932,-2.549292088,-0.008341909,41,170
2020/8/10,13:13:36,22.9023224,120.2727294,15.114,-21,-1,213,-113,81,-1040,-53.40328598,-38.444664,-15.11487007,0.054566082,-2.411920071,0.050272867,41,170
2020/8/10,13:13:39,22.9023171,120.272732,14.904,149,-9,-1010,-89,-82,-1031,-53.99947739,-38.18302155,-14.90442944,-0.105478391,3.030163765,-0.090984255,41,170
2020/8/10,13:13:42,22.9023275,120.272803,15.195,-5,-3,-58,-43,-99,-1022,-52.83435822,-30.90067291,-15.19598198,0.036319517,1.527727485,0.111629993,41,170
2020/8/10,13:13:45,22.9023364,120.2728774,15.09,-40,-1,-51,115,-54,-964,-51.84592819,-23.27304077,-15.09059143,0.035034612,1.406587958,0.062318586,41,170
2020/8/10,13:13:48,22.9023484,120.2729579,15.139,-20,14,-73,16,4,-1000,-50.50808334,-15.01985168,-15.1399889,-0.0043796,1.379487753,0.049887419,41,170
2020/8/10,13:13:51,22.9023605,120.2730474,14.913,-73,33,-33,-5,-7,-1009,-49.16399002,-5.842720032,-14.91397572,0.025340501,1.440259457,0.007493502,41,170
2020/8/10,13:13:54,22.9023745,120.2731304,15.037,-56,35,124,21,29,-1002,-47.6030426,2.66768074,-15.03797817,0.00626565,1.372916698,0.030329786,41,170
2020/8/10,13:13:57,22.9023948,120.2731978,15.31,15,-80,-1073,49,15,-974,-45.34178925,9.58218956,-15.31052876,-0.002543514,0.068940826,-0.193167403,41,170
2020/8/10,13:14:00,22.9024533,120.2731829,14.942,134,-112,88,26,-14,-959,-38.82942581,8.05449295,-14.94209766,0.027190801,-0.081199013,-0.037889689,41,170
2020/8/10,13:14:03,22.9025267,120.2731709,14.885,-14,44,-20,103,46,-947,-30.66735458,6.824983597,-14.88523483,0.001158927,-0.157124966,-0.070304438,41,170
2020/8/10,13:14:06,22.9026081,120.2731574,14.748,-7,-66,-36,76,132,-925,-21.60253525,5.443992615,-14.74855518,0.033990197,-0.228406504,-0.075799018,41,170
2020/8/10,13:14:09,22.9026845,120.2731417,14.473,-46,-13,81,-5,24,-1013,-13.09164524,3.832426071,-14.47364235,0.037814904,-0.18500793,-0.03847938,41,170
2020/8/10,13:14:12,22.9027589,120.2731283,14.303,40,76,-22,97,23,-981,-4.809959412,2.455295563,-14.30369282,0.052254587,-0.155678362,-0.043093756,41,170
2020/8/10,13:14:15,22.9028008,120.2731221,13.686,36,-150,11,77,48,-860,-0.153209686,1.816627502,-13.68651485,0.10351491,-0.091833159,-0.091257297,41,170
2020/8/10,13:14:18,22.9028034,120.2731186,9.634,-78,-232,-13,-25,58,-1090,0.142697811,1.456581116,-9.63492775,0.091147624,-0.143038481,-0.018408038,41,170
2020/8/10,13:14:21,22.902804,120.2731207,8.186,-74,-115,12,-7,114,-1007,0.205664158,1.681425095,-8.18603611,0.040243782,-0.104308173,-0.040256359,41,170
2020/8/10,13:14:24,22.9028055,120.2731196,6.715,-41,-32,-37,91,-8,-1006,0.374555588,1.563789368,-6.715537548,0.082864411,-0.082983971,-0.022404574,41,170
2020/8/10,13:14:27,22.9028041,120.2731206,5.187,-61,15,-55,84,22,-979,0.220281124,1.670455933,-5.187356472,0.05307395,-0.1171382,-0.022677053,41,170
2020/8/10,13:14:30,22.9028033,120.2731197,3.598,2,-9,-4,24,24,-982,0.130126476,1.571537018,-3.598128796,0.041978966,-0.129654258,-0.010672801,41,170
2020/8/10,13:14:33,22.9028052,120.2731194,2.085,-78,-11,13,75,54,-1006,0.338574409,1.538999557,-2.085821629,0.064290568,-0.108389147,-0.011177212,41,170
2020/8/10,13:14:36,22.9028058,120.273121,1.043,-3,-18,-14,74,-31,-1000,0.40952301,1.703054428,-1.043906331,0.06448818,-0.09320759,0.040052854,41,170
